[
    {
        "name" : "野々市市中央公民館",
        "coordinates": [136.6188119100507,36.53374937930993],
        "description": "ここは野々市市中央公民館です。収容人数: 300人"
    },
    {
        "name" : "野々市市女性センター",
        "coordinates": [136.60489122897204,36.539035402324465],
        "description": "ここは野々市市女性センターです。収容人数: 150人"
    },
    {
        "name" : "富奥防災コミュニティセンター",
        "coordinates": [136.60613632878608,36.5156842664744],
        "description": "ここは富奥防災コミュニティセンターです。収容人数: 120人"
    },
    {
        "name" : "野々市市文化会館フォルテ",
        "coordinates": [136.6072758142113,36.533918188210606],
        "description": "ここは野々市市文化会館フォルテです。収容人数: 200人"
    },
    {
        "name" : "郷公民館",
        "coordinates": [136.59581750625162,36.53419591480067],
        "description": "ここは郷公民館です。収容人数: 110人"
    },
    {
        "name" : "野々市市民体育館",
        "coordinates": [136.59897918353118,36.527148385414336],
        "description": "ここは野々市市民体育館です。収容人数: 140人"
    }, {
        "name" : "野々市市交遊舎",
        "coordinates": [136.59876336045255,36.54481002027772],
        "description": "ここは野々市市交遊舎です。収容人数: 30人"
    }, {
        "name" : "石川県立野々市明倫高等学校",
        "coordinates": [136.6013021554249,36.52657486326438],
        "description": "ここは石川県立野々市明倫高等学校です。収容人数: 500人"
    }, {
        "name" : "野々市市立野々市中学校",
        "coordinates": [136.60834027119338,36.5261610307623],
        "description": "ここは野々市市立野々市中学校です。収容人数: 400人"
    }, {
        "name" : "野々市市立館野小学校",
        "coordinates": [136.61727219033222,36.54212641044791],
        "description": "ここは野々市市立館野小学校です。収容人数: 300人"
    }, {
        "name" : "野々市市立野々市小学校",
        "coordinates": [136.60919857799442,36.53395450443073],
        "description": "ここは野々市市立野々市小学校です。収容人数: 300人"
    }, {
        "name" : "野々市市立布水中学校",
        "coordinates": [136.6112585143169,36.540850728794155],
        "description": "ここは野々市市立布水中学校です。収容人数: 200人"
    }, {
        "name" : "ゴールドジムヴィテンののいち",
        "coordinates": [136.61652356761186,36.53630969108535],
        "description": "ここはゴールドジムヴィテンののいちです。収容人数: 100人"
    }, {
        "name" : "満天の湯 白山インター店",
        "coordinates": [136.5812598049389,36.52891872848604],
        "description": "ここは満天の湯 白山インター店です。収容人数: 300人"
    }, {
        "name" : "野々市市立御園小学校",
        "coordinates": [136.6042624272067,36.54022895014932],
        "description": "ここは野々市市立御園小学校です。収容人数: 300人"
    }, {
        "name" : "野々市市立菅原小学校",
        "coordinates": [136.61499268978287,36.52852069261786],
        "description": "ここは野々市市立菅原小学校です。収容人数: 230人"
    }, {
        "name" : "野々市市役所",
        "coordinates": [136.60975559073333,36.52202144007271],
        "description": "ここは野々市市役所です。収容人数: 500人"
    }, {
        "name" : "野々市市立富陽小学校",
        "coordinates": [136.60323245904544,36.516779089606125],
        "description": "ここは野々市市立富陽小学校です。収容人数: 250人"
    }, {
        "name" : "新庄一丁目集会所",
        "coordinates": [136.61078555889455,36.50215381382316],
        "description": "ここは新庄一丁目集会所です。収容人数: 50人"
    }, {
        "name" : "特別養護老人ホーム かんじん",
        "coordinates": [136.60886658247495,36.50101911809545],
        "description": "ここは特別養護老人ホーム かんじんです。収容人数: 200人"
    }, {
        "name" : "スポーツセンター",
        "coordinates": [136.61390748480383,36.5549288370346],
        "description": "ここはスポーツセンターです。収容人数: 100人"
    }, {
        "name" : "子育て支援センター和光",
        "coordinates": [136.62270390625162,36.528563457656205],
        "description": "ここは子育て支援センター和光です。収容人数: 30人"
    }, {
        "name" : "金沢市 押野公民館",
        "coordinates": [136.60716364091863,36.54983794503761],
        "description": "ここは金沢市 押野公民館です。収容人数: 200人"
    }, {
        "name" : "金沢工業大学",
        "coordinates": [136.62768626829805,36.53147293328765],
        "description": "ここは金沢工業大学です。収容人数: 2000人"
    }
]