[
    {
        "name" : "野々市市中央公民館",
        "coordinates": [136.6188119100507,36.53374937930993],
        "description": "ここは野々市市中央公民館です。収容人数: 300人"
    },
    {
        "name" : "野々市市女性センター",
        "coordinates": [136.60489122897204,36.539035402324465],
        "description": "ここは野々市市女性センターです。収容人数: 150人"
    },
    {
        "name" : "富奥防災コミュニティセンター",
        "coordinates": [136.60613632878608,36.5156842664744],
        "description": "ここは富奥防災コミュニティセンターです。収容人数: 200人"
    },
    {
        "name" : "野々市市文化会館フォルテ",
        "coordinates": [136.6072758142113,36.533918188210606],
        "description": "ここは野々市市文化会館フォルテです。収容人数: 200人"
    },
    {
        "name" : "郷公民館",
        "coordinates": [136.59581750625162,36.53419591480067],
        "description": "ここは郷公民館です。収容人数: 200人"
    },
    {
        "name" : "野々市市民体育館",
        "coordinates": [136.59897918353118,36.527148385414336],
        "description": "ここは野々市市民体育館です。収容人数: 200人"
    }
]